{"避難所":{"type":"FeatureCollection","features":[{"type":"Feature","properties":{"﻿name":"武生東小学校","address":"越前市国府二丁目9-12","origin":"防災安全課","category1":"防災","category2":"広域避難場所","category3":"全災害","area":"東地区","tel":"0778-22-0367"},"geometry":{"type":"Point","coordinates":[136.1685104,35.9084868]}},{"type":"Feature","properties":{"﻿name":"武生西小学校","address":"越前市中央二丁目2-13","origin":"防災安全課","category1":"防災","category2":"広域避難場所","category3":"全災害","area":"西地区","tel":"0778-22-0408"},"geometry":{"type":"Point","coordinates":[136.1581421,35.9025706]}},{"type":"Feature","properties":{"﻿name":"武生第一中学校","address":"越前市平出一丁目6-1","origin":"防災安全課","category1":"防災","category2":"広域避難場所","category3":"全災害","area":"西地区","tel":"0778-23-1411"},"geometry":{"type":"Point","coordinates":[136.1584336,35.9085588]}},{"type":"Feature","properties":{"﻿name":"武生南小学校","address":"越前市武生柳町13-20","origin":"防災安全課","category1":"防災","category2":"広域避難場所","category3":"全災害","area":"南地区","tel":"0778-22-0366"},"geometry":{"type":"Point","coordinates":[136.1643807,35.8942968]}},{"type":"Feature","properties":{"﻿name":"武生第二中学校","address":"越前市妙法寺町42-15","origin":"防災安全課","category1":"防災","category2":"広域避難場所","category3":"全災害","area":"南地区","tel":"0778-23-1422"},"geometry":{"type":"Point","coordinates":[136.1603785,35.8873808]}},{"type":"Feature","properties":{"﻿name":"神山小学校","address":"越前市広瀬町102-43","origin":"防災安全課","category1":"防災","category2":"広域避難場所","category3":"全災害","area":"神山地区","tel":"0778-22-1104"},"geometry":{"type":"Point","coordinates":[136.1360452,35.8857334]}},{"type":"Feature","properties":{"﻿name":"吉野小学校","address":"越前市本保町17-1","origin":"防災安全課","category1":"防災","category2":"広域避難場所","category3":"全災害","area":"吉野地区","tel":"0778-22-0192"},"geometry":{"type":"Point","coordinates":[136.1572387,35.9261038]}},{"type":"Feature","properties":{"﻿name":"コミュニティセンター柳荘","address":"越前市家久町105-10-1","origin":"防災安全課","category1":"防災","category2":"広域避難場所","category3":"全災害","area":"吉野地区","tel":"0778-23-3436"},"geometry":{"type":"Point","coordinates":[136.1719215,35.9204726]}},{"type":"Feature","properties":{"﻿name":"国高小学校","address":"越前市国高一丁目15-5","origin":"防災安全課","category1":"防災","category2":"広域避難場所","category3":"全災害","area":"国高地区","tel":"0778-22-1045"},"geometry":{"type":"Point","coordinates":[136.1859754,35.9123147]}},{"type":"Feature","properties":{"﻿name":"武生第三中学校","address":"越前市村国二丁目3-56","origin":"防災安全課","category1":"防災","category2":"広域避難場所","category3":"全災害","area":"国高地区","tel":"0778-23-1433"},"geometry":{"type":"Point","coordinates":[136.1758765,35.9057096]}},{"type":"Feature","properties":{"﻿name":"大虫小学校","address":"越前市高森町14-15","origin":"防災安全課","category1":"防災","category2":"広域避難場所","category3":"全災害","area":"大虫地区","tel":"0778-22-1109"},"geometry":{"type":"Point","coordinates":[136.1418661,35.9062085]}},{"type":"Feature","properties":{"﻿name":"坂口小学校","address":"越前市湯谷町24-25","origin":"防災安全課","category1":"防災","category2":"広域避難場所","category3":"全災害","area":"坂口地区","tel":"0778-28-1808"},"geometry":{"type":"Point","coordinates":[136.0868953,35.8589351]}},{"type":"Feature","properties":{"﻿name":"王子保小学校","address":"越前市今宿町5-14","origin":"防災安全課","category1":"防災","category2":"広域避難場所","category3":"全災害","area":"王子保地区","tel":"0778-22-1293"},"geometry":{"type":"Point","coordinates":[136.1674812,35.8661114]}},{"type":"Feature","properties":{"﻿name":"武生第六中学校","address":"越前市四郎丸町16-1","origin":"防災安全課","category1":"防災","category2":"広域避難場所","category3":"全災害","area":"王子保地区","tel":"0778-22-1462"},"geometry":{"type":"Point","coordinates":[136.1590542,35.8657]}},{"type":"Feature","properties":{"﻿name":"北日野小学校","address":"越前市小野谷町2-2","origin":"防災安全課","category1":"防災","category2":"広域避難場所","category3":"全災害","area":"北日野地区","tel":"0778-22-1095"},"geometry":{"type":"Point","coordinates":[136.190595,35.8894509]}},{"type":"Feature","properties":{"﻿name":"万葉中学校","address":"越前市西尾町48-18","origin":"防災安全課","category1":"防災","category2":"広域避難場所","category3":"全災害","area":"北日野地区","tel":"0778-27-1258"},"geometry":{"type":"Point","coordinates":[136.2135026,35.8922735]}},{"type":"Feature","properties":{"﻿name":"北新庄小学校","address":"越前市北町47-6","origin":"防災安全課","category1":"防災","category2":"広域避難場所","category3":"全災害","area":"北新庄地区","tel":"0778-22-1040"},"geometry":{"type":"Point","coordinates":[136.2099638,35.9139874]}},{"type":"Feature","properties":{"﻿name":"味真野小学校","address":"越前市池泉町9-1","origin":"防災安全課","category1":"防災","category2":"広域避難場所","category3":"全災害","area":"味真野地区","tel":"0778-27-1323"},"geometry":{"type":"Point","coordinates":[136.2328142,35.8905074]}},{"type":"Feature","properties":{"﻿name":"白山小学校","address":"越前市都辺町24-2","origin":"防災安全課","category1":"防災","category2":"広域避難場所","category3":"全災害","area":"白山地区","tel":"0778-28-1002"},"geometry":{"type":"Point","coordinates":[136.0528846,35.8880581]}},{"type":"Feature","properties":{"﻿name":"武生第五中学校","address":"越前市都辺町36-73","origin":"防災安全課","category1":"防災","category2":"広域避難場所","category3":"全災害","area":"白山地区","tel":"0778-28-1004"},"geometry":{"type":"Point","coordinates":[136.0568425,35.8885303]}},{"type":"Feature","properties":{"﻿name":"花筐小学校","address":"越前市粟田部町41-12","origin":"防災安全課","category1":"防災","category2":"広域避難場所","category3":"地震時","area":"粟田部地区","tel":"0778-42-0045"},"geometry":{"type":"Point","coordinates":[136.2403936,35.9141213]}},{"type":"Feature","properties":{"﻿name":"いまだて芸術館","address":"越前市粟田部町11-1-1","origin":"防災安全課","category1":"防災","category2":"広域避難場所","category3":"全災害","area":"粟田部地区","tel":"0778-42-2700"},"geometry":{"type":"Point","coordinates":[136.2472218,35.9187262]}},{"type":"Feature","properties":{"﻿name":"今立体育センター","address":"越前市岩本町1-9","origin":"防災安全課","category1":"防災","category2":"広域避難場所","category3":"全災害","area":"粟田部地区","tel":"0778-43-1587"},"geometry":{"type":"Point","coordinates":[136.2406742,35.9098967]}},{"type":"Feature","properties":{"﻿name":"岡本小学校","address":"越前市定友町10-15","origin":"防災安全課","category1":"防災","category2":"広域避難場所","category3":"全災害","area":"岡本地区","tel":"0778-42-0101"},"geometry":{"type":"Point","coordinates":[136.2451764,35.9151435]}},{"type":"Feature","properties":{"﻿name":"南越中学校","address":"越前市野岡町28-4","origin":"防災安全課","category1":"防災","category2":"広域避難場所","category3":"全災害","area":"南中山地区","tel":"0778-42-1870"},"geometry":{"type":"Point","coordinates":[136.2497424,35.9261258]}},{"type":"Feature","properties":{"﻿name":"服間小学校","address":"越前市藤木町12-11","origin":"防災安全課","category1":"防災","category2":"広域避難場所","category3":"全災害","area":"服間地区","tel":"0778-42-1002"},"geometry":{"type":"Point","coordinates":[136.2650714,35.9354359]}}]},"AED":{"type":"FeatureCollection","features":[{"type":"Feature","properties":{"﻿name":"市役所本庁舎","address":"府中一丁目１３－７","origin":"健康","category1":"健康増進課","category2":"健康","category3":"AED","file":"自動体外式除細動器","url":"http://www.city.echizen.lg.jp/office/050/030/aedzidoutaigaisikizyozaidouki.html","area":"東","count":"1"},"geometry":{"type":"Point","coordinates":[136.168864,35.903921]}},{"type":"Feature","properties":{"﻿name":"市役所本庁舎","address":"府中一丁目１３－７","origin":"健康","category1":"健康増進課","category2":"健康","category3":"AED","file":"自動体外式除細動器","url":"http://www.city.echizen.lg.jp/office/050/030/aedzidoutaigaisikizyozaidouki.html","area":"東","count":"1"},"geometry":{"type":"Point","coordinates":[136.168864,35.903921]}},{"type":"Feature","properties":{"﻿name":"武生東小学校","address":"国府二丁目９－１２","origin":"健康","category1":"健康増進課","category2":"健康","category3":"AED","file":"自動体外式除細動器","url":"http://www.city.echizen.lg.jp/office/050/030/aedzidoutaigaisikizyozaidouki.html","area":"東","count":"1"},"geometry":{"type":"Point","coordinates":[136.168063,35.908546]}},{"type":"Feature","properties":{"﻿name":"武生東公民館","address":"国府二丁目９－１２","origin":"健康","category1":"健康増進課","category2":"健康","category3":"AED","file":"自動体外式除細動器","url":"http://www.city.echizen.lg.jp/office/050/030/aedzidoutaigaisikizyozaidouki.html","area":"東","count":"1"},"geometry":{"type":"Point","coordinates":[136.167833,35.908985]}},{"type":"Feature","properties":{"﻿name":"武生東児童センター","address":"国府二丁目１６－８","origin":"健康","category1":"健康増進課","category2":"健康","category3":"AED","file":"自動体外式除細動器","url":"http://www.city.echizen.lg.jp/office/050/030/aedzidoutaigaisikizyozaidouki.html","area":"東","count":"1"},"geometry":{"type":"Point","coordinates":[136.167439,35.909079]}},{"type":"Feature","properties":{"﻿name":"越前市福祉健康センター","address":"府中一丁目１１－２","origin":"健康","category1":"健康増進課","category2":"健康","category3":"AED","file":"自動体外式除細動器","url":"http://www.city.echizen.lg.jp/office/050/030/aedzidoutaigaisikizyozaidouki.html","area":"東","count":"1"},"geometry":{"type":"Point","coordinates":[136.170351,35.904633]}},{"type":"Feature","properties":{"﻿name":"市民プラザたけふ","address":"府中一丁目１１－２","origin":"健康","category1":"健康増進課","category2":"健康","category3":"AED","file":"自動体外式除細動器","url":"http://www.city.echizen.lg.jp/office/050/030/aedzidoutaigaisikizyozaidouki.html","area":"東","count":"1"},"geometry":{"type":"Point","coordinates":[136.170351,35.904633]}},{"type":"Feature","properties":{"﻿name":"越前市武生公会堂記念館","address":"蓬莱町８－８","origin":"健康","category1":"健康増進課","category2":"健康","category3":"AED","file":"自動体外式除細動器","url":"http://www.city.echizen.lg.jp/office/050/030/aedzidoutaigaisikizyozaidouki.html","area":"東","count":"1"},"geometry":{"type":"Point","coordinates":[136.168308,35.901697]}},{"type":"Feature","properties":{"﻿name":"越前市中央図書館","address":"高瀬二丁目７－２４","origin":"健康","category1":"健康増進課","category2":"健康","category3":"AED","file":"自動体外式除細動器","url":"http://www.city.echizen.lg.jp/office/050/030/aedzidoutaigaisikizyozaidouki.html","area":"西","count":"1"},"geometry":{"type":"Point","coordinates":[136.15922,35.898993]}},{"type":"Feature","properties":{"﻿name":"武生西小学校","address":"中央二丁目２－１３","origin":"健康","category1":"健康増進課","category2":"健康","category3":"AED","file":"自動体外式除細動器","url":"http://www.city.echizen.lg.jp/office/050/030/aedzidoutaigaisikizyozaidouki.html","area":"西","count":"1"},"geometry":{"type":"Point","coordinates":[136.158139,35.902282]}},{"type":"Feature","properties":{"﻿name":"武生第一中学校","address":"平出一丁目６－１","origin":"健康","category1":"健康増進課","category2":"健康","category3":"AED","file":"自動体外式除細動器","url":"http://www.city.echizen.lg.jp/office/050/030/aedzidoutaigaisikizyozaidouki.html","area":"西","count":"1"},"geometry":{"type":"Point","coordinates":[136.158234,35.907968]}},{"type":"Feature","properties":{"﻿name":"西公民館","address":"中央二丁目５－３５","origin":"健康","category1":"健康増進課","category2":"健康","category3":"AED","file":"自動体外式除細動器","url":"http://www.city.echizen.lg.jp/office/050/030/aedzidoutaigaisikizyozaidouki.html","area":"西","count":"1"},"geometry":{"type":"Point","coordinates":[136.156557,35.902115]}},{"type":"Feature","properties":{"﻿name":"武生西児童センター","address":"中央二丁目４－１０","origin":"健康","category1":"健康増進課","category2":"健康","category3":"AED","file":"自動体外式除細動器","url":"http://www.city.echizen.lg.jp/office/050/030/aedzidoutaigaisikizyozaidouki.html","area":"西","count":"1"},"geometry":{"type":"Point","coordinates":[136.15687,35.902509]}},{"type":"Feature","properties":{"﻿name":"なかよし保育園","address":"高瀬二丁目４－１４","origin":"健康","category1":"健康増進課","category2":"健康","category3":"AED","file":"自動体外式除細動器","url":"http://www.city.echizen.lg.jp/office/050/030/aedzidoutaigaisikizyozaidouki.html","area":"西","count":"1"},"geometry":{"type":"Point","coordinates":[136.160809,35.898989]}},{"type":"Feature","properties":{"﻿name":"越前市武道館","address":"中央一丁目８－１５－１","origin":"健康","category1":"健康増進課","category2":"健康","category3":"AED","file":"自動体外式除細動器","url":"http://www.city.echizen.lg.jp/office/050/030/aedzidoutaigaisikizyozaidouki.html","area":"西","count":"1"},"geometry":{"type":"Point","coordinates":[136.156469,35.900906]}},{"type":"Feature","properties":{"﻿name":"武生中央公園総合体育館（メインアリーナ用）","address":"高瀬二丁目８－２３","origin":"健康","category1":"健康増進課","category2":"健康","category3":"AED","file":"自動体外式除細動器","url":"http://www.city.echizen.lg.jp/office/050/030/aedzidoutaigaisikizyozaidouki.html","area":"西","count":"1"},"geometry":{"type":"Point","coordinates":[136.155532,35.9]}},{"type":"Feature","properties":{"﻿name":"武生中央公園総合体育館（サブアリーナ用）","address":"高瀬二丁目８－２３","origin":"健康","category1":"健康増進課","category2":"健康","category3":"AED","file":"自動体外式除細動器","url":"http://www.city.echizen.lg.jp/office/050/030/aedzidoutaigaisikizyozaidouki.html","area":"西","count":"1"},"geometry":{"type":"Point","coordinates":[136.155532,35.9]}},{"type":"Feature","properties":{"﻿name":"武生中央公園庭球場管理棟","address":"高瀬二丁目７－８１","origin":"健康","category1":"健康増進課","category2":"健康","category3":"AED","file":"自動体外式除細動器","url":"http://www.city.echizen.lg.jp/office/050/030/aedzidoutaigaisikizyozaidouki.html","area":"西","count":"1"},"geometry":{"type":"Point","coordinates":[136.156588,35.898471]}},{"type":"Feature","properties":{"﻿name":"文化センター","address":"高瀬二丁目３－３","origin":"健康","category1":"健康増進課","category2":"健康","category3":"AED","file":"自動体外式除細動器","url":"http://www.city.echizen.lg.jp/office/050/030/aedzidoutaigaisikizyozaidouki.html","area":"西","count":"1"},"geometry":{"type":"Point","coordinates":[136.159977,35.899588]}},{"type":"Feature","properties":{"﻿name":"かこさとしふるさと記念館　石石","address":"高瀬一丁目１４－７","origin":"健康","category1":"健康増進課","category2":"健康","category3":"AED","file":"自動体外式除細動器","url":"http://www.city.echizen.lg.jp/office/050/030/aedzidoutaigaisikizyozaidouki.html","area":"西","count":"1"},"geometry":{"type":"Point","coordinates":[136.156968,35.895876]}},{"type":"Feature","properties":{"﻿name":"越前市弓道場","address":"妙法寺町３６－２－１","origin":"健康","category1":"健康増進課","category2":"健康","category3":"AED","file":"自動体外式除細動器","url":"http://www.city.echizen.lg.jp/office/050/030/aedzidoutaigaisikizyozaidouki.html","area":"南","count":"1"},"geometry":{"type":"Point","coordinates":[136.161018,35.886598]}},{"type":"Feature","properties":{"﻿name":"ふるさとギャラリー叔羅","address":"東千福町１７－１７","origin":"健康","category1":"健康増進課","category2":"健康","category3":"AED","file":"自動体外式除細動器","url":"http://www.city.echizen.lg.jp/office/050/030/aedzidoutaigaisikizyozaidouki.html","area":"南","count":"1"},"geometry":{"type":"Point","coordinates":[136.158749,35.889008]}},{"type":"Feature","properties":{"﻿name":"藤波亭：無料休憩所","address":"東千福町２１−１２","origin":"健康","category1":"健康増進課","category2":"健康","category3":"AED","file":"自動体外式除細動器","url":"http://www.city.echizen.lg.jp/office/050/030/aedzidoutaigaisikizyozaidouki.html","area":"南","count":"1"},"geometry":{"type":"Point","coordinates":[136.156669,35.890276]}},{"type":"Feature","properties":{"﻿name":"武生南小学校","address":"武生柳町１３－２０","origin":"健康","category1":"健康増進課","category2":"健康","category3":"AED","file":"自動体外式除細動器","url":"http://www.city.echizen.lg.jp/office/050/030/aedzidoutaigaisikizyozaidouki.html","area":"南","count":"1"},"geometry":{"type":"Point","coordinates":[136.164619,35.894355]}},{"type":"Feature","properties":{"﻿name":"武生第二中学校","address":"妙法寺町４２－１５","origin":"健康","category1":"健康増進課","category2":"健康","category3":"AED","file":"自動体外式除細動器","url":"http://www.city.echizen.lg.jp/office/050/030/aedzidoutaigaisikizyozaidouki.html","area":"南","count":"1"},"geometry":{"type":"Point","coordinates":[136.160787,35.887209]}},{"type":"Feature","properties":{"﻿name":"南公民館","address":"武生柳町１２－２７","origin":"健康","category1":"健康増進課","category2":"健康","category3":"AED","file":"自動体外式除細動器","url":"http://www.city.echizen.lg.jp/office/050/030/aedzidoutaigaisikizyozaidouki.html","area":"南","count":"1"},"geometry":{"type":"Point","coordinates":[136.164074,35.895331]}},{"type":"Feature","properties":{"﻿name":"武生南児童センター","address":"武生柳町１１－２８","origin":"健康","category1":"健康増進課","category2":"健康","category3":"AED","file":"自動体外式除細動器","url":"http://www.city.echizen.lg.jp/office/050/030/aedzidoutaigaisikizyozaidouki.html","area":"南","count":"1"},"geometry":{"type":"Point","coordinates":[136.164719,35.895554]}},{"type":"Feature","properties":{"﻿name":"越前市武生体育センター","address":"行松町２５－１０","origin":"健康","category1":"健康増進課","category2":"健康","category3":"AED","file":"自動体外式除細動器","url":"http://www.city.echizen.lg.jp/office/050/030/aedzidoutaigaisikizyozaidouki.html","area":"南","count":"1"},"geometry":{"type":"Point","coordinates":[136.167321,35.876425]}},{"type":"Feature","properties":{"﻿name":"神山小学校","address":"広瀬町１０２－４３","origin":"健康","category1":"健康増進課","category2":"健康","category3":"AED","file":"自動体外式除細動器","url":"http://www.city.echizen.lg.jp/office/050/030/aedzidoutaigaisikizyozaidouki.html","area":"神山","count":"1"},"geometry":{"type":"Point","coordinates":[136.135976,35.8857]}},{"type":"Feature","properties":{"﻿name":"神山公民館","address":"広瀬町１０２－５５－２","origin":"健康","category1":"健康増進課","category2":"健康","category3":"AED","file":"自動体外式除細動器","url":"http://www.city.echizen.lg.jp/office/050/030/aedzidoutaigaisikizyozaidouki.html","area":"神山","count":"1"},"geometry":{"type":"Point","coordinates":[136.135632,35.885893]}},{"type":"Feature","properties":{"﻿name":"神山児童館","address":"広瀬町１０２－４１","origin":"健康","category1":"健康増進課","category2":"健康","category3":"AED","file":"自動体外式除細動器","url":"http://www.city.echizen.lg.jp/office/050/030/aedzidoutaigaisikizyozaidouki.html","area":"神山","count":"1"},"geometry":{"type":"Point","coordinates":[136.136792,35.885615]}},{"type":"Feature","properties":{"﻿name":"刃物の里（越前打刃物振興施設）","address":"池ノ上町４８－６－１","origin":"健康","category1":"健康増進課","category2":"健康","category3":"AED","file":"自動体外式除細動器","url":"http://www.city.echizen.lg.jp/office/050/030/aedzidoutaigaisikizyozaidouki.html","area":"神山","count":"1"},"geometry":{"type":"Point","coordinates":[136.146534,35.875891]}},{"type":"Feature","properties":{"﻿name":"吉野小学校","address":"本保町１７－１","origin":"健康","category1":"健康増進課","category2":"健康","category3":"AED","file":"自動体外式除細動器","url":"http://www.city.echizen.lg.jp/office/050/030/aedzidoutaigaisikizyozaidouki.html","area":"吉野","count":"1"},"geometry":{"type":"Point","coordinates":[136.15744,35.925811]}},{"type":"Feature","properties":{"﻿name":"吉野公民館","address":"本保町１９－６","origin":"健康","category1":"健康増進課","category2":"健康","category3":"AED","file":"自動体外式除細動器","url":"http://www.city.echizen.lg.jp/office/050/030/aedzidoutaigaisikizyozaidouki.html","area":"吉野","count":"1"},"geometry":{"type":"Point","coordinates":[136.15828,35.926424]}},{"type":"Feature","properties":{"﻿name":"吉野児童館","address":"本保町１９－９－１ ","origin":"健康","category1":"健康増進課","category2":"健康","category3":"AED","file":"自動体外式除細動器","url":"http://www.city.echizen.lg.jp/office/050/030/aedzidoutaigaisikizyozaidouki.html","area":"吉野","count":"1"},"geometry":{"type":"Point","coordinates":[136.158705,35.925337]}},{"type":"Feature","properties":{"﻿name":"家久保育園","address":"家久町９４－２－１","origin":"健康","category1":"健康増進課","category2":"健康","category3":"AED","file":"自動体外式除細動器","url":"http://www.city.echizen.lg.jp/office/050/030/aedzidoutaigaisikizyozaidouki.html","area":"吉野","count":"1"},"geometry":{"type":"Point","coordinates":[136.166934,35.922534]}},{"type":"Feature","properties":{"﻿name":"家久スポーツ公園温水プール","address":"家久町１０５－1","origin":"健康","category1":"健康増進課","category2":"健康","category3":"AED","file":"自動体外式除細動器","url":"http://www.city.echizen.lg.jp/office/050/030/aedzidoutaigaisikizyozaidouki.html","area":"吉野","count":"1"},"geometry":{"type":"Point","coordinates":[136.17173,35.919519]}},{"type":"Feature","properties":{"﻿name":"コミュニティセンター柳荘","address":"家久町１０５－１０－１","origin":"健康","category1":"健康増進課","category2":"健康","category3":"AED","file":"自動体外式除細動器","url":"http://www.city.echizen.lg.jp/office/050/030/aedzidoutaigaisikizyozaidouki.html","area":"吉野","count":"1"},"geometry":{"type":"Point","coordinates":[136.171896,35.920468]}},{"type":"Feature","properties":{"﻿name":"国高小学校","address":"国高一丁目１５－５","origin":"健康","category1":"健康増進課","category2":"健康","category3":"AED","file":"自動体外式除細動器","url":"http://www.city.echizen.lg.jp/office/050/031/aedzidoutaigaisikizyozaidouki.html","area":"国高","count":"1"},"geometry":{"type":"Point","coordinates":[136.185416,35.912465]}},{"type":"Feature","properties":{"﻿name":"武生第三中学校","address":"村国二丁目３－５６","origin":"健康","category1":"健康増進課","category2":"健康","category3":"AED","file":"自動体外式除細動器","url":"http://www.city.echizen.lg.jp/office/050/030/aedzidoutaigaisikizyozaidouki.html","area":"国高","count":"1"},"geometry":{"type":"Point","coordinates":[136.175052,35.905913]}},{"type":"Feature","properties":{"﻿name":"国高公民館","address":"国高二丁目３２４－１３","origin":"健康","category1":"健康増進課","category2":"健康","category3":"AED","file":"自動体外式除細動器","url":"http://www.city.echizen.lg.jp/office/050/030/aedzidoutaigaisikizyozaidouki.html","area":"国高","count":"1"},"geometry":{"type":"Point","coordinates":[136.189744,35.911353]}},{"type":"Feature","properties":{"﻿name":"国高児童センター","address":"国高二丁目３２５－３","origin":"健康","category1":"健康増進課","category2":"健康","category3":"AED","file":"自動体外式除細動器","url":"http://www.city.echizen.lg.jp/office/050/030/aedzidoutaigaisikizyozaidouki.html","area":"国高","count":"1"},"geometry":{"type":"Point","coordinates":[136.189385,35.91089]}},{"type":"Feature","properties":{"﻿name":"越前市サッカー場","address":"瓜生町６－１６－２","origin":"健康","category1":"健康増進課","category2":"健康","category3":"AED","file":"自動体外式除細動器","url":"http://www.city.echizen.lg.jp/office/050/030/aedzidoutaigaisikizyozaidouki.html","area":"国高","count":"1"},"geometry":{"type":"Point","coordinates":[136.183705,35.929901]}},{"type":"Feature","properties":{"﻿name":"瓜生水と緑公園体育館","address":"瓜生町１９－７－１","origin":"健康","category1":"健康増進課","category2":"健康","category3":"AED","file":"自動体外式除細動器","url":"http://www.city.echizen.lg.jp/office/050/030/aedzidoutaigaisikizyozaidouki.html","area":"国高","count":"1"},"geometry":{"type":"Point","coordinates":[136.183383,35.926675]}},{"type":"Feature","properties":{"﻿name":"式部ふれあい館","address":"国高一丁目１３－１１","origin":"健康","category1":"健康増進課","category2":"健康","category3":"AED","file":"自動体外式除細動器","url":"http://www.city.echizen.lg.jp/office/050/030/aedzidoutaigaisikizyozaidouki.html","area":"国高","count":"1"},"geometry":{"type":"Point","coordinates":[136.184934,35.912437]}},{"type":"Feature","properties":{"﻿name":"大虫小学校","address":"高森町１４－１５","origin":"健康","category1":"健康増進課","category2":"健康","category3":"AED","file":"自動体外式除細動器","url":"http://www.city.echizen.lg.jp/office/050/030/aedzidoutaigaisikizyozaidouki.html","area":"大虫","count":"1"},"geometry":{"type":"Point","coordinates":[136.141857,35.906205]}},{"type":"Feature","properties":{"﻿name":"大虫公民館","address":"丹生郷町１３－２０－１","origin":"健康","category1":"健康増進課","category2":"健康","category3":"AED","file":"自動体外式除細動器","url":"http://www.city.echizen.lg.jp/office/050/030/aedzidoutaigaisikizyozaidouki.html","area":"大虫","count":"1"},"geometry":{"type":"Point","coordinates":[136.141534,35.907655]}},{"type":"Feature","properties":{"﻿name":"大虫児童館","address":"丹生郷町１３－２０－４","origin":"健康","category1":"健康増進課","category2":"健康","category3":"AED","file":"自動体外式除細動器","url":"http://www.city.echizen.lg.jp/office/050/030/aedzidoutaigaisikizyozaidouki.html","area":"大虫","count":"1"},"geometry":{"type":"Point","coordinates":[136.141507,35.908122]}},{"type":"Feature","properties":{"﻿name":"上太田保育園","address":"上太田町１１－２","origin":"健康","category1":"健康増進課","category2":"健康","category3":"AED","file":"自動体外式除細動器","url":"http://www.city.echizen.lg.jp/office/050/030/aedzidoutaigaisikizyozaidouki.html","area":"大虫","count":"1"},"geometry":{"type":"Point","coordinates":[136.151302,35.900567]}},{"type":"Feature","properties":{"﻿name":"大虫体育館","address":"丹生郷町１３－２０－１","origin":"健康","category1":"健康増進課","category2":"健康","category3":"AED","file":"自動体外式除細動器","url":"http://www.city.echizen.lg.jp/office/050/030/aedzidoutaigaisikizyozaidouki.html","area":"大虫","count":"1"},"geometry":{"type":"Point","coordinates":[136.141503,35.907912]}},{"type":"Feature","properties":{"﻿name":"坂口小学校","address":"湯谷町２４－２５","origin":"健康","category1":"健康増進課","category2":"健康","category3":"AED","file":"自動体外式除細動器","url":"http://www.city.echizen.lg.jp/office/050/030/aedzidoutaigaisikizyozaidouki.html","area":"坂口","count":"1"},"geometry":{"type":"Point","coordinates":[136.08713,35.859022]}},{"type":"Feature","properties":{"﻿name":"坂口公民館","address":"湯谷町２４－１８－１","origin":"健康","category1":"健康増進課","category2":"健康","category3":"AED","file":"自動体外式除細動器","url":"http://www.city.echizen.lg.jp/office/050/030/aedzidoutaigaisikizyozaidouki.html","area":"坂口","count":"1"},"geometry":{"type":"Point","coordinates":[136.08709,35.85991]}},{"type":"Feature","properties":{"﻿name":"白崎公園屋内ゲートボール場","address":"白崎町３５－２３－１","origin":"健康","category1":"健康増進課","category2":"健康","category3":"AED","file":"自動体外式除細動器","url":"http://www.city.echizen.lg.jp/office/050/030/aedzidoutaigaisikizyozaidouki.html","area":"王子保","count":"1"},"geometry":{"type":"Point","coordinates":[136.142883,35.8649]}},{"type":"Feature","properties":{"﻿name":"斎場","address":"春日野町１０５－１１","origin":"健康","category1":"健康増進課","category2":"健康","category3":"AED","file":"自動体外式除細動器","url":"http://www.city.echizen.lg.jp/office/050/030/aedzidoutaigaisikizyozaidouki.html","area":"王子保","count":"1"},"geometry":{"type":"Point","coordinates":[136.140726,35.860141]}},{"type":"Feature","properties":{"﻿name":"王子保小学校","address":"今宿町５－１４","origin":"健康","category1":"健康増進課","category2":"健康","category3":"AED","file":"自動体外式除細動器","url":"http://www.city.echizen.lg.jp/office/050/030/aedzidoutaigaisikizyozaidouki.html","area":"王子保","count":"1"},"geometry":{"type":"Point","coordinates":[136.16821,35.8665912]}},{"type":"Feature","properties":{"﻿name":"武生第六中学校","address":"四郎丸町１６－１","origin":"健康","category1":"健康増進課","category2":"健康","category3":"AED","file":"自動体外式除細動器","url":"http://www.city.echizen.lg.jp/office/050/030/aedzidoutaigaisikizyozaidouki.html","area":"王子保","count":"1"},"geometry":{"type":"Point","coordinates":[136.159343,35.86572]}},{"type":"Feature","properties":{"﻿name":"王子保公民館","address":"四郎丸町６５－２－１","origin":"健康","category1":"健康増進課","category2":"健康","category3":"AED","file":"自動体外式除細動器","url":"http://www.city.echizen.lg.jp/office/050/030/aedzidoutaigaisikizyozaidouki.html","area":"王子保","count":"1"},"geometry":{"type":"Point","coordinates":[136.168839,35.867487]}},{"type":"Feature","properties":{"﻿name":"王子保児童センター","address":"四郎丸町５５－４－４","origin":"健康","category1":"健康増進課","category2":"健康","category3":"AED","file":"自動体外式除細動器","url":"http://www.city.echizen.lg.jp/office/050/030/aedzidoutaigaisikizyozaidouki.html","area":"王子保","count":"1"},"geometry":{"type":"Point","coordinates":[136.166081,35.866817]}},{"type":"Feature","properties":{"﻿name":"越前市さんハウスたけふ","address":"白崎町３５－８－１","origin":"健康","category1":"健康増進課","category2":"健康","category3":"AED","file":"自動体外式除細動器","url":"http://www.city.echizen.lg.jp/office/050/030/aedzidoutaigaisikizyozaidouki.html","area":"王子保","count":"1"},"geometry":{"type":"Point","coordinates":[136.14232,35.865049]}},{"type":"Feature","properties":{"﻿name":"しきぶ温泉湯楽里","address":"白崎町６８－８","origin":"健康","category1":"健康増進課","category2":"健康","category3":"AED","file":"自動体外式除細動器","url":"http://www.city.echizen.lg.jp/office/050/030/aedzidoutaigaisikizyozaidouki.html","area":"王子保","count":"1"},"geometry":{"type":"Point","coordinates":[136.144653,35.863359]}},{"type":"Feature","properties":{"﻿name":"しきぶ温泉湯楽里","address":"白崎町６８－８","origin":"健康","category1":"健康増進課","category2":"健康","category3":"AED","file":"自動体外式除細動器","url":"http://www.city.echizen.lg.jp/office/050/030/aedzidoutaigaisikizyozaidouki.html","area":"王子保","count":"1"},"geometry":{"type":"Point","coordinates":[136.144653,35.863359]}},{"type":"Feature","properties":{"﻿name":"北新庄小学校","address":"北町４７－６","origin":"健康","category1":"健康増進課","category2":"健康","category3":"AED","file":"自動体外式除細動器","url":"http://www.city.echizen.lg.jp/office/050/030/aedzidoutaigaisikizyozaidouki.html","area":"北新庄","count":"1"},"geometry":{"type":"Point","coordinates":[136.210044,35.913959]}},{"type":"Feature","properties":{"﻿name":"北新庄児童館","address":"北町５４－２５","origin":"健康","category1":"健康増進課","category2":"健康","category3":"AED","file":"自動体外式除細動器","url":"http://www.city.echizen.lg.jp/office/050/030/aedzidoutaigaisikizyozaidouki.html","area":"北新庄","count":"1"},"geometry":{"type":"Point","coordinates":[136.211103,35.912674]}},{"type":"Feature","properties":{"﻿name":"認定こども園北新庄","address":"北町３８－６","origin":"健康","category1":"健康増進課","category2":"健康","category3":"AED","file":"自動体外式除細動器","url":"http://www.city.echizen.lg.jp/office/050/030/aedzidoutaigaisikizyozaidouki.html","area":"北新庄","count":"1"},"geometry":{"type":"Point","coordinates":[136.209114,35.913957]}},{"type":"Feature","properties":{"﻿name":"北新庄体育館","address":"北町５４－２５","origin":"健康","category1":"健康増進課","category2":"健康","category3":"AED","file":"自動体外式除細動器","url":"http://www.city.echizen.lg.jp/office/050/030/aedzidoutaigaisikizyozaidouki.html","area":"北新庄","count":"1"},"geometry":{"type":"Point","coordinates":[136.211099,35.912632]}},{"type":"Feature","properties":{"﻿name":"北日野小学校","address":"小野谷町２－２","origin":"健康","category1":"健康増進課","category2":"健康","category3":"AED","file":"自動体外式除細動器","url":"http://www.city.echizen.lg.jp/office/050/030/aedzidoutaigaisikizyozaidouki.html","area":"北日野","count":"1"},"geometry":{"type":"Point","coordinates":[136.190715,35.889448]}},{"type":"Feature","properties":{"﻿name":"万葉中学校","address":"西尾町４８－１８","origin":"健康","category1":"健康増進課","category2":"健康","category3":"AED","file":"自動体外式除細動器","url":"http://www.city.echizen.lg.jp/office/050/030/aedzidoutaigaisikizyozaidouki.html","area":"北日野","count":"1"},"geometry":{"type":"Point","coordinates":[136.213458,35.892301]}},{"type":"Feature","properties":{"﻿name":"北日野公民館","address":"矢放町２１－１１","origin":"健康","category1":"健康増進課","category2":"健康","category3":"AED","file":"自動体外式除細動器","url":"http://www.city.echizen.lg.jp/office/050/030/aedzidoutaigaisikizyozaidouki.html","area":"北日野","count":"1"},"geometry":{"type":"Point","coordinates":[136.188638,35.889667]}},{"type":"Feature","properties":{"﻿name":"北日野児童センター","address":"小野谷町１－１３","origin":"健康","category1":"健康増進課","category2":"健康","category3":"AED","file":"自動体外式除細動器","url":"http://www.city.echizen.lg.jp/office/050/030/aedzidoutaigaisikizyozaidouki.html","area":"北日野","count":"1"},"geometry":{"type":"Point","coordinates":[136.19062,35.890077]}},{"type":"Feature","properties":{"﻿name":"認定こども園北日野","address":"矢放町１６－４","origin":"健康","category1":"健康増進課","category2":"健康","category3":"AED","file":"自動体外式除細動器","url":"http://www.city.echizen.lg.jp/office/050/030/aedzidoutaigaisikizyozaidouki.html","area":"北日野","count":"1"},"geometry":{"type":"Point","coordinates":[136.187646,35.888842]}},{"type":"Feature","properties":{"﻿name":"北日野体育館","address":"矢放町２１－１１","origin":"健康","category1":"健康増進課","category2":"健康","category3":"AED","file":"自動体外式除細動器","url":"http://www.city.echizen.lg.jp/office/050/030/aedzidoutaigaisikizyozaidouki.html","area":"北日野","count":"1"},"geometry":{"type":"Point","coordinates":[136.188729,35.889644]}},{"type":"Feature","properties":{"﻿name":"味真野小学校","address":"池泉町９－１","origin":"健康","category1":"健康増進課","category2":"健康","category3":"AED","file":"自動体外式除細動器","url":"http://www.city.echizen.lg.jp/office/050/030/aedzidoutaigaisikizyozaidouki.html","area":"味真野","count":"1"},"geometry":{"type":"Point","coordinates":[136.233361,35.890705]}},{"type":"Feature","properties":{"﻿name":"味真野公民館","address":"味真野町７－２－１","origin":"健康","category1":"健康増進課","category2":"健康","category3":"AED","file":"自動体外式除細動器","url":"http://www.city.echizen.lg.jp/office/050/030/aedzidoutaigaisikizyozaidouki.html","area":"味真野","count":"1"},"geometry":{"type":"Point","coordinates":[136.226656,35.887373]}},{"type":"Feature","properties":{"﻿name":"味真野児童センター","address":"池泉町１４－１","origin":"健康","category1":"健康増進課","category2":"健康","category3":"AED","file":"自動体外式除細動器","url":"http://www.city.echizen.lg.jp/office/050/030/aedzidoutaigaisikizyozaidouki.html","area":"味真野","count":"1"},"geometry":{"type":"Point","coordinates":[136.234207,35.8906]}},{"type":"Feature","properties":{"﻿name":"東運動公園事務所","address":"宮谷町３５－１０","origin":"健康","category1":"健康増進課","category2":"健康","category3":"AED","file":"自動体外式除細動器","url":"http://www.city.echizen.lg.jp/office/050/030/aedzidoutaigaisikizyozaidouki.html","area":"味真野","count":"1"},"geometry":{"type":"Point","coordinates":[136.221279,35.8933]}},{"type":"Feature","properties":{"﻿name":"万葉菊花園","address":"余川町２２－９６－１","origin":"健康","category1":"健康増進課","category2":"健康","category3":"AED","file":"自動体外式除細動器","url":"http://www.city.echizen.lg.jp/office/050/030/aedzidoutaigaisikizyozaidouki.html","area":"味真野","count":"1"},"geometry":{"type":"Point","coordinates":[136.237665,35.886781]}},{"type":"Feature","properties":{"﻿name":"白山小学校","address":"都辺町２４－２","origin":"健康","category1":"健康増進課","category2":"健康","category3":"AED","file":"自動体外式除細動器","url":"http://www.city.echizen.lg.jp/office/050/030/aedzidoutaigaisikizyozaidouki.html","area":"白山","count":"1"},"geometry":{"type":"Point","coordinates":[136.052779,35.88802]}},{"type":"Feature","properties":{"﻿name":"武生第五中学校","address":"都辺町３６－７３","origin":"健康","category1":"健康増進課","category2":"健康","category3":"AED","file":"自動体外式除細動器","url":"http://www.city.echizen.lg.jp/office/050/030/aedzidoutaigaisikizyozaidouki.html","area":"白山","count":"1"},"geometry":{"type":"Point","coordinates":[136.056771,35.888484]}},{"type":"Feature","properties":{"﻿name":"白山公民館","address":"都辺町３６－８４","origin":"健康","category1":"健康増進課","category2":"健康","category3":"AED","file":"自動体外式除細動器","url":"http://www.city.echizen.lg.jp/office/050/030/aedzidoutaigaisikizyozaidouki.html","area":"白山","count":"1"},"geometry":{"type":"Point","coordinates":[136.05577,35.887877]}},{"type":"Feature","properties":{"﻿name":"越前市みどりと自然の村","address":"安養寺町５－３","origin":"健康","category1":"健康増進課","category2":"健康","category3":"AED","file":"自動体外式除細動器","url":"http://www.city.echizen.lg.jp/office/050/030/aedzidoutaigaisikizyozaidouki.html","area":"白山","count":"1"},"geometry":{"type":"Point","coordinates":[136.08052,35.920972]}},{"type":"Feature","properties":{"﻿name":"金華山グリーンランド","address":"米口町５８－２５","origin":"健康","category1":"健康増進課","category2":"健康","category3":"AED","file":"自動体外式除細動器","url":"http://www.city.echizen.lg.jp/office/050/030/aedzidoutaigaisikizyozaidouki.html","area":"白山","count":"1"},"geometry":{"type":"Point","coordinates":[136.057271,35.866066]}},{"type":"Feature","properties":{"﻿name":"越前市あいぱーく今立（今立総合支所）","address":"粟田部町９－１－９","origin":"健康","category1":"健康増進課","category2":"健康","category3":"AED","file":"自動体外式除細動器","url":"http://www.city.echizen.lg.jp/office/050/030/aedzidoutaigaisikizyozaidouki.html","area":"粟田部","count":"1"},"geometry":{"type":"Point","coordinates":[136.246447,35.919187]}},{"type":"Feature","properties":{"﻿name":"花筺小学校","address":"粟田部町４１－１２","origin":"健康","category1":"健康増進課","category2":"健康","category3":"AED","file":"自動体外式除細動器","url":"http://www.city.echizen.lg.jp/office/050/030/aedzidoutaigaisikizyozaidouki.html","area":"粟田部","count":"1"},"geometry":{"type":"Point","coordinates":[136.24027,35.914096]}},{"type":"Feature","properties":{"﻿name":"花筺公民館","address":"粟田部町１７－１０","origin":"健康","category1":"健康増進課","category2":"健康","category3":"AED","file":"自動体外式除細動器","url":"http://www.city.echizen.lg.jp/office/050/030/aedzidoutaigaisikizyozaidouki.html","area":"粟田部","count":"1"},"geometry":{"type":"Point","coordinates":[136.238589,35.919141]}},{"type":"Feature","properties":{"﻿name":"花筐児童館","address":"粟田部町１７－１７","origin":"健康","category1":"健康増進課","category2":"健康","category3":"AED","file":"自動体外式除細動器","url":"http://www.city.echizen.lg.jp/office/050/030/aedzidoutaigaisikizyozaidouki.html","area":"粟田部","count":"1"},"geometry":{"type":"Point","coordinates":[136.238784,35.919115]}},{"type":"Feature","properties":{"﻿name":"いまだて芸術館","address":"粟田部町１１－１－１","origin":"健康","category1":"健康増進課","category2":"健康","category3":"AED","file":"自動体外式除細動器","url":"http://www.city.echizen.lg.jp/office/050/030/aedzidoutaigaisikizyozaidouki.html","area":"粟田部","count":"1"},"geometry":{"type":"Point","coordinates":[136.247278,35.918724]}},{"type":"Feature","properties":{"﻿name":"越前市社会福祉センター","address":"杉尾町１－２７－１","origin":"健康","category1":"健康増進課","category2":"健康","category3":"AED","file":"自動体外式除細動器","url":"http://www.city.echizen.lg.jp/office/050/030/aedzidoutaigaisikizyozaidouki.html","area":"岡本","count":"1"},"geometry":{"type":"Point","coordinates":[136.252736,35.92]}},{"type":"Feature","properties":{"﻿name":"越前市今立図書館","address":"定友町２１－３－１","origin":"健康","category1":"健康増進課","category2":"健康","category3":"AED","file":"自動体外式除細動器","url":"http://www.city.echizen.lg.jp/office/050/030/aedzidoutaigaisikizyozaidouki.html","area":"岡本","count":"1"},"geometry":{"type":"Point","coordinates":[136.247172,35.919203]}},{"type":"Feature","properties":{"﻿name":"岡本小学校","address":"定友町１０－１５","origin":"健康","category1":"健康増進課","category2":"健康","category3":"AED","file":"自動体外式除細動器","url":"http://www.city.echizen.lg.jp/office/050/030/aedzidoutaigaisikizyozaidouki.html","area":"岡本","count":"1"},"geometry":{"type":"Point","coordinates":[136.244924,35.915276]}},{"type":"Feature","properties":{"﻿name":"岡本公民館","address":"定友町１０－２－２","origin":"健康","category1":"健康増進課","category2":"健康","category3":"AED","file":"自動体外式除細動器","url":"http://www.city.echizen.lg.jp/office/050/030/aedzidoutaigaisikizyozaidouki.html","area":"岡本","count":"1"},"geometry":{"type":"Point","coordinates":[136.244898,35.91384]}},{"type":"Feature","properties":{"﻿name":"岡本児童館","address":"定友町１０－１５","origin":"健康","category1":"健康増進課","category2":"健康","category3":"AED","file":"自動体外式除細動器","url":"http://www.city.echizen.lg.jp/office/050/030/aedzidoutaigaisikizyozaidouki.html","area":"岡本","count":"1"},"geometry":{"type":"Point","coordinates":[136.245159,35.915164]}},{"type":"Feature","properties":{"﻿name":"認定こども園岡本","address":"岩本町５－２６","origin":"健康","category1":"健康増進課","category2":"健康","category3":"AED","file":"自動体外式除細動器","url":"http://www.city.echizen.lg.jp/office/050/030/aedzidoutaigaisikizyozaidouki.html","area":"岡本","count":"1"},"geometry":{"type":"Point","coordinates":[136.245061,35.908397]}},{"type":"Feature","properties":{"﻿name":"今立体育センター","address":"岩本町１－９","origin":"健康","category1":"健康増進課","category2":"健康","category3":"AED","file":"自動体外式除細動器","url":"http://www.city.echizen.lg.jp/office/050/030/aedzidoutaigaisikizyozaidouki.html","area":"岡本","count":"1"},"geometry":{"type":"Point","coordinates":[136.240677,35.90989]}},{"type":"Feature","properties":{"﻿name":"越前市社会福祉センター","address":"杉尾町１－２７－１","origin":"健康","category1":"健康増進課","category2":"健康","category3":"AED","file":"自動体外式除細動器","url":"http://www.city.echizen.lg.jp/office/050/030/aedzidoutaigaisikizyozaidouki.html","area":"岡本","count":"1"},"geometry":{"type":"Point","coordinates":[136.252736,35.92]}},{"type":"Feature","properties":{"﻿name":"社会福祉センター(夢広場）","address":"杉尾町１－２７－１","origin":"健康","category1":"健康増進課","category2":"健康","category3":"AED","file":"自動体外式除細動器","url":"http://www.city.echizen.lg.jp/office/050/030/aedzidoutaigaisikizyozaidouki.html","area":"岡本","count":"1"},"geometry":{"type":"Point","coordinates":[136.253589,35.919957]}},{"type":"Feature","properties":{"﻿name":"パピルス館","address":"新在家町８－４４","origin":"健康","category1":"健康増進課","category2":"健康","category3":"AED","file":"自動体外式除細動器","url":"http://www.city.echizen.lg.jp/office/050/030/aedzidoutaigaisikizyozaidouki.html","area":"岡本","count":"1"},"geometry":{"type":"Point","coordinates":[136.243336,35.911397]}},{"type":"Feature","properties":{"﻿name":"八ツ杉森林学習センター","address":"別印町１９－１－１","origin":"健康","category1":"健康増進課","category2":"健康","category3":"AED","file":"自動体外式除細動器","url":"http://www.city.echizen.lg.jp/office/050/030/aedzidoutaigaisikizyozaidouki.html","area":"岡本","count":"1"},"geometry":{"type":"Point","coordinates":[136.307974,35.887956]}},{"type":"Feature","properties":{"﻿name":"越前市老人福祉センター今寿苑","address":"杉尾町１－２４－１","origin":"健康","category1":"健康増進課","category2":"健康","category3":"AED","file":"自動体外式除細動器","url":"http://www.city.echizen.lg.jp/office/050/031/aedzidoutaigaisikizyozaidouki.html","area":"岡本","count":"1"},"geometry":{"type":"Point","coordinates":[136.251844,35.92045]}},{"type":"Feature","properties":{"﻿name":"南中山小学校","address":"中津山町３８－１３－２","origin":"健康","category1":"健康増進課","category2":"健康","category3":"AED","file":"自動体外式除細動器","url":"http://www.city.echizen.lg.jp/office/050/032/aedzidoutaigaisikizyozaidouki.html","area":"南中山","count":"1"},"geometry":{"type":"Point","coordinates":[136.247069,35.929642]}},{"type":"Feature","properties":{"﻿name":"南越中学校","address":"野岡町２８－４","origin":"健康","category1":"健康増進課","category2":"健康","category3":"AED","file":"自動体外式除細動器","url":"http://www.city.echizen.lg.jp/office/050/033/aedzidoutaigaisikizyozaidouki.html","area":"南中山","count":"1"},"geometry":{"type":"Point","coordinates":[136.249679,35.926095]}},{"type":"Feature","properties":{"﻿name":"南中山公民館","address":"西庄境町２１－７－１","origin":"健康","category1":"健康増進課","category2":"健康","category3":"AED","file":"自動体外式除細動器","url":"http://www.city.echizen.lg.jp/office/050/034/aedzidoutaigaisikizyozaidouki.html","area":"南中山","count":"1"},"geometry":{"type":"Point","coordinates":[136.248109,35.929154]}},{"type":"Feature","properties":{"﻿name":"南中山児童館","address":"西庄境町２１－７－１","origin":"健康","category1":"健康増進課","category2":"健康","category3":"AED","file":"自動体外式除細動器","url":"http://www.city.echizen.lg.jp/office/050/035/aedzidoutaigaisikizyozaidouki.html","area":"南中山","count":"1"},"geometry":{"type":"Point","coordinates":[136.248255,35.92925]}},{"type":"Feature","properties":{"﻿name":"認定こども園南中山","address":"中津山町４１－１３－２","origin":"健康","category1":"健康増進課","category2":"健康","category3":"AED","file":"自動体外式除細動器","url":"http://www.city.echizen.lg.jp/office/050/030/aedzidoutaigaisikizyozaidouki.html","area":"南中山","count":"1"},"geometry":{"type":"Point","coordinates":[136.246085,35.929618]}},{"type":"Feature","properties":{"﻿name":"服間小学校","address":"藤木町１２－１１","origin":"","category1":"","category2":"","category3":"","file":"","url":"","area":"服間","count":""},"geometry":{"type":"Point","coordinates":[136.265032,35.935436]}},{"type":"Feature","properties":{"﻿name":"服間公民館","address":"藤木町１２－３９－１","origin":"","category1":"","category2":"","category3":"","file":"","url":"","area":"服間","count":""},"geometry":{"type":"Point","coordinates":[136.263829,35.93473]}},{"type":"Feature","properties":{"﻿name":"服間児童館","address":"藤木町１２－４３","origin":"","category1":"","category2":"","category3":"","file":"","url":"","area":"服間","count":""},"geometry":{"type":"Point","coordinates":[136.263621,35.934603]}},{"type":"Feature","properties":{"﻿name":"認定こども園服間","address":"藤木町１２－３４","origin":"","category1":"","category2":"","category3":"","file":"","url":"","area":"服間","count":""},"geometry":{"type":"Point","coordinates":[136.264013,35.935542]}},{"type":"Feature","properties":{"﻿name":"健康増進課","address":"府中一丁目１３－７","origin":"","category1":"","category2":"","category3":"","file":"","url":"","area":"東","count":""},"geometry":{"type":"Point","coordinates":[136.168857,35.903979]}}]},"医療機関":{"type":"FeatureCollection","features":[{"type":"Feature","properties":{"﻿name":"（医）林病院","address":"越前市府中一丁目3-5","description":"","url":"http://www.hayashi-hospital.or.jp/","tel":"0778-22-0336","shinryokamoku":"内、 外、 整、 消 外、 消 内、 脳 神 外、 神内、循、呼、リウマチ、眼、リハビリ、 泌、形成外、放、麻、腎","色":"緑","area":"東"},"geometry":{"type":"Point","coordinates":[136.169652,35.902104]}},{"type":"Feature","properties":{"﻿name":"さとういきいきクリニック","address":"越前市府中一丁目4-20","description":"","url":"http://www.ikiikiclinic.jp/","tel":"0778-21-0310","shinryokamoku":"消内、内、外","色":"緑","area":"東"},"geometry":{"type":"Point","coordinates":[136.168914,35.902575]}},{"type":"Feature","properties":{"﻿name":"桑原心療内科クリニック","address":"越前市府中二丁目3-22","description":"","url":"","tel":"0778-21-1161","shinryokamoku":"心療内、精、神","色":"緑","area":"東"},"geometry":{"type":"Point","coordinates":[136.168955,35.904951]}},{"type":"Feature","properties":{"﻿name":"マルカ整形外科内科","address":"越前市吾妻町2-8","description":"","url":"","tel":"0778-22-1317","shinryokamoku":"内、外、整、リハビリ","色":"緑","area":"東"},"geometry":{"type":"Point","coordinates":[136.170138,35.900668]}},{"type":"Feature","properties":{"﻿name":"（医）井元産婦人科医院","address":"越前市堀川町6-25","description":"","url":"http://www.imoto-sanfujinka.com/","tel":"0778-23-3541","shinryokamoku":"内、産婦","色":"緑","area":"東"},"geometry":{"type":"Point","coordinates":[136.172338,35.898338]}},{"type":"Feature","properties":{"﻿name":"ささした助産所","address":"越前市堀川町7-5","description":"","url":"http://www.osannoie.jp/","tel":"0778-24-3841","shinryokamoku":"産婦","色":"緑","area":"東"},"geometry":{"type":"Point","coordinates":[136.172833,35.898233]}},{"type":"Feature","properties":{"﻿name":"奥村眼科医院","address":"越前市天王町2-22","description":"","url":"http://www.okumura-ganka.com/","tel":"0778-24-2016","shinryokamoku":"眼","色":"緑","area":"東"},"geometry":{"type":"Point","coordinates":[136.16758,35.900657]}},{"type":"Feature","properties":{"﻿name":"（財医）中村病院","address":"越前市天王町4-28","description":"公益社団法人日本小児科医会、公益社団法人日本小児科学会の会員である小児科医","url":"http://www.nakamura-hp.or.jp/","tel":"0778-22-0618","shinryokamoku":"児、 内、 循、 泌、 外、 整、放、 脳神外、消、内分泌、神内、婦、眼、 リハビリ、呼、呼外、形、心臓血管外科、耳鼻咽喉科","色":"オレンジ","area":"東"},"geometry":{"type":"Point","coordinates":[136.166755,35.900493]}},{"type":"Feature","properties":{"﻿name":"サンライフクリニック","address":"越前市蓬莱町6-24","description":"","url":"http://sunlifeonodani.jp/clinic/","tel":"0778-22-8835","shinryokamoku":"内、整","色":"緑","area":"東"},"geometry":{"type":"Point","coordinates":[136.167058,35.90216]}},{"type":"Feature","properties":{"﻿name":"越前外科内科医院","address":"越前市北府二丁目12-13","description":"","url":"","tel":"0778-22-1100","shinryokamoku":"内、 外、 胃、 循、 児、 整、 心 臓 外、 透析、精","色":"オレンジ","area":"東"},"geometry":{"type":"Point","coordinates":[136.16633,35.913856]}},{"type":"Feature","properties":{"﻿name":"（医）斎藤医院","address":"越前市北府三丁目5-1","description":"","url":"","tel":"0778-22-0234","shinryokamoku":"内、婦、リハビリ","色":"緑","area":"東"},"geometry":{"type":"Point","coordinates":[136.164952,35.910978]}},{"type":"Feature","properties":{"﻿name":"関医院","address":"越前市京町三丁目1-33","description":"","url":"","tel":"0778-22-0103","shinryokamoku":"内、外、胃","色":"緑","area":"西"},"geometry":{"type":"Point","coordinates":[136.164097,35.904201]}},{"type":"Feature","properties":{"﻿name":"（医）堀川医院","address":"越前市本多一丁目6-7","description":"","url":"http://horikawa33.com/","tel":"0778-24-3850","shinryokamoku":"耳、鼻、咽、児、アレルギー","色":"オレンジ","area":"西"},"geometry":{"type":"Point","coordinates":[136.162422,35.905351]}},{"type":"Feature","properties":{"﻿name":"（医）月岡医院","address":"越前市本多一丁目10-18","description":"","url":"http://www.tsukioka-med.com/index.php","tel":"0778-23-0220","shinryokamoku":"胃、内、消","色":"緑","area":"西"},"geometry":{"type":"Point","coordinates":[136.163805,35.906079]}},{"type":"Feature","properties":{"﻿name":"（医）福田胃腸科外科","address":"越前市高瀬一丁目33-8","description":"","url":"http://clinic-fukuda.net/","tel":"0778-22-8855","shinryokamoku":"胃、内、外、児、整、肛","色":"オレンジ","area":"南"},"geometry":{"type":"Point","coordinates":[136.156945,35.893416]}},{"type":"Feature","properties":{"﻿name":"（医）相木病院","address":"越前市中央二丁目9-40","description":"","url":"http://www.myclinic.ne.jp/aiki/pc/","tel":"0778-22-1607","shinryokamoku":"内、児、胃、循、呼、肛","色":"オレンジ","area":"西"},"geometry":{"type":"Point","coordinates":[136.156373,35.902793]}},{"type":"Feature","properties":{"﻿name":"（医）野尻医院","address":"越前市平出一丁目12-37","description":"","url":"http://www.nojiri-iin.jp/","tel":"0778-22-5108","shinryokamoku":"内、児","色":"オレンジ","area":"西"},"geometry":{"type":"Point","coordinates":[136.15977,35.908975]}},{"type":"Feature","properties":{"﻿name":"（医）武生記念病院","address":"越前市小松二丁目7-25","description":"","url":"","tel":"0778-22-2887","shinryokamoku":"精、内、神","色":"緑","area":"西"},"geometry":{"type":"Point","coordinates":[136.156034,35.906176]}},{"type":"Feature","properties":{"﻿name":"ひらい医院","address":"越前市新町8-1-11","description":"","url":"","tel":"0778-25-4118","shinryokamoku":"内、消","色":"緑","area":"西"},"geometry":{"type":"Point","coordinates":[136.15244,35.90324]}},{"type":"Feature","properties":{"﻿name":"はやし内科外科","address":"越前市若竹町7-5","description":"","url":"","tel":"0778-21-0111","shinryokamoku":"内、外、呼内、消内","色":"緑","area":"南"},"geometry":{"type":"Point","coordinates":[136.167786,35.894261]}},{"type":"Feature","properties":{"﻿name":"なんぶ眼科クリニック","address":"越前市あおば町1-30","description":"","url":"","tel":"0778-21-2111","shinryokamoku":"眼","色":"緑","area":"南"},"geometry":{"type":"Point","coordinates":[136.168172,35.897476]}},{"type":"Feature","properties":{"﻿name":"岩堀メディカルオフィス","address":"越前市神明町4-12","description":"","url":"http://iwahori.jp/","tel":"0778-22-0385","shinryokamoku":"児、泌、内、消","色":"オレンジ","area":"南"},"geometry":{"type":"Point","coordinates":[136.168166,35.898119]}},{"type":"Feature","properties":{"﻿name":"吉田皮膚科医院","address":"越前市姫川二丁目3-3","description":"","url":"","tel":"0778-24-5532","shinryokamoku":"皮","色":"緑","area":"南"},"geometry":{"type":"Point","coordinates":[136.171541,35.896947]}},{"type":"Feature","properties":{"﻿name":"藤井医院","address":"越前市文京一丁目6-28","description":"","url":"","tel":"0778-23-3211","shinryokamoku":"内、産婦、消、呼、循、児","色":"オレンジ","area":"南"},"geometry":{"type":"Point","coordinates":[136.160459,35.891117]}},{"type":"Feature","properties":{"﻿name":"橋本整形クリニック","address":"越前市東千福町23-16","description":"","url":"http://hashimoto.kagahaku.jp/","tel":"0778-23-2112","shinryokamoku":"整、リウマチ、リハビリ","色":"緑","area":"南"},"geometry":{"type":"Point","coordinates":[136.157509,35.891689]}},{"type":"Feature","properties":{"﻿name":"（医）土川整形外科医院","address":"越前市常久町8-1","description":"","url":"","tel":"0778-22-5280","shinryokamoku":"整、リハビリ","色":"緑","area":"南"},"geometry":{"type":"Point","coordinates":[136.163434,35.888397]}},{"type":"Feature","properties":{"﻿name":"（医）平井眼科内科クリニック","address":"越前市芝原四丁目10-28","description":"","url":"","tel":"0778-21-3755","shinryokamoku":"眼、内、呼、消、胃、循、児","色":"オレンジ","area":"吉野"},"geometry":{"type":"Point","coordinates":[136.161019,35.919741]}},{"type":"Feature","properties":{"﻿name":"こうの内科耳鼻咽喉科","address":"越前市芝原五丁目11-1","description":"","url":"","tel":"0778-21-2113","shinryokamoku":"内、耳、鼻、咽","色":"緑","area":"吉野"},"geometry":{"type":"Point","coordinates":[136.160811,35.922538]}},{"type":"Feature","properties":{"﻿name":"たけふクリニック","address":"越前市村国三丁目1-12","description":"","url":"","tel":"0778-29-1212","shinryokamoku":"内、循","色":"緑","area":"国高"},"geometry":{"type":"Point","coordinates":[136.177415,35.90939]}},{"type":"Feature","properties":{"﻿name":"しみずクリニック","address":"越前市国高一丁目3-12","description":"","url":"","tel":"0778-21-0101","shinryokamoku":"内、外、整、皮、児","色":"オレンジ","area":"国高"},"geometry":{"type":"Point","coordinates":[136.186345,35.90919]}},{"type":"Feature","properties":{"﻿name":"（医）東武内科外科クリニック","address":"越前市横市町6-3","description":"","url":"http://www.myclinic.ne.jp/toubu/pc/index.html","tel":"0778-21-1155","shinryokamoku":"内、外、胃、整、児、肛、皮、循、泌","色":"オレンジ","area":"国高"},"geometry":{"type":"Point","coordinates":[136.192528,35.909471]}},{"type":"Feature","properties":{"﻿name":"耳鼻咽喉科アレルギー科 やまもとクリニック","address":"越前市庄町1-1","description":"","url":"http://yamamoto-ent.net/","tel":"0778-23-1187","shinryokamoku":"耳、鼻、咽、アレルギー","色":"緑","area":"国高"},"geometry":{"type":"Point","coordinates":[136.191217,35.910204]}},{"type":"Feature","properties":{"﻿name":"（医）笠原病院","address":"越前市塚町214","description":"","url":"http://www.kasahara-hosp.or.jp/","tel":"0778-23-1155","shinryokamoku":"外、内、婦、胃、整、 肛、リハビリ、放","色":"緑","area":"国高"},"geometry":{"type":"Point","coordinates":[136.191844,35.91607]}},{"type":"Feature","properties":{"﻿name":"（医）きむら小児科","address":"越前市瓜生町29-1-12","description":"公益社団法人日本小児科医会、公益社団法人日本小児科学会の会員である小児科医","url":"http://www.myclinic.ne.jp/kimura_ped/pc/index.html","tel":"0778-25-0020","shinryokamoku":"児","色":"オレンジ","area":"国高"},"geometry":{"type":"Point","coordinates":[136.181456,35.925669]}},{"type":"Feature","properties":{"﻿name":"西武クリニック","address":"越前市上太田町37-10-1","description":"","url":"","tel":"0778-23-7788","shinryokamoku":"内、外、整、消内","色":"緑","area":"大虫"},"geometry":{"type":"Point","coordinates":[136.146504,35.90324]}},{"type":"Feature","properties":{"﻿name":"平井皮ふ科医院","address":"越前市上太田町49-6-6","description":"","url":"","tel":"0778-25-4112","shinryokamoku":"皮、形成外","色":"緑","area":"大虫"},"geometry":{"type":"Point","coordinates":[136.148399,35.90119]}},{"type":"Feature","properties":{"﻿name":"坂口診療所","address":"越前市湯谷町24-18-1　(坂口公民館内）","description":"","url":"","tel":"0778-28-1046","shinryokamoku":"内、外、胃","色":"緑","area":"坂口"},"geometry":{"type":"Point","coordinates":[136.087093,35.859896]}},{"type":"Feature","properties":{"﻿name":"（医）池端病院","address":"越前市今宿町8-1","description":"","url":"http://ikebata.jp/index.html","tel":"0778-23-0150","shinryokamoku":"内、外、胃、整、児、皮、リハビリ","色":"オレンジ","area":"王子保"},"geometry":{"type":"Point","coordinates":[136.169917,35.865437]}},{"type":"Feature","properties":{"﻿name":"（医）はしもと小児科クリニック","address":"越前市帆山町10-5-1","description":"公益社団法人日本小児科医会、公益社団法人日本小児科学会の会員である小児科医","url":"http://hashimoto-shonika.jp/","tel":"0778-23-8080","shinryokamoku":"児","色":"オレンジ","area":"北日野"},"geometry":{"type":"Point","coordinates":[136.176552,35.896133]}},{"type":"Feature","properties":{"﻿name":"加藤医院","address":"越前市北町30-4","description":"","url":"","tel":"0778-22-2334","shinryokamoku":"内、外、胃、皮","色":"緑","area":"北新庄"},"geometry":{"type":"Point","coordinates":[136.206145,35.909918]}},{"type":"Feature","properties":{"﻿name":"（医）萩原医院","address":"越前市宮谷町36-10","description":"","url":"https://www.hagiwara-clinic-fukui.com/","tel":"0778-27-1228","shinryokamoku":"内、外、児、胃","色":"オレンジ","area":"北日野"},"geometry":{"type":"Point","coordinates":[136.223074,35.891543]}},{"type":"Feature","properties":{"﻿name":"野尻医院しらやま診療所（白山商工会内）","address":"越前市菖蒲谷町19-8-6 (越前市商工会白山支所内）","description":"","url":"","tel":"0778-29-2822","shinryokamoku":"児、内","色":"オレンジ","area":"白山"},"geometry":{"type":"Point","coordinates":[136.051796,35.885858]}},{"type":"Feature","properties":{"﻿name":"（医）佐々木医院","address":"越前市粟田部町29-33","description":"","url":"http://www.sasakiiin.com/","tel":"0778-42-0002","shinryokamoku":"内、消、循、呼、児、放、リハビリ","色":"オレンジ","area":"粟田部"},"geometry":{"type":"Point","coordinates":[136.240907,35.916468]}},{"type":"Feature","properties":{"﻿name":"（一財）今立中央病院","address":"越前市粟田部町33-1","description":"","url":"http://www.myclinic.ne.jp/imachu/pc/","tel":"0778-42-1800","shinryokamoku":"内、外、整、児、胃、呼、循、泌、皮、 脳神外、婦、眼、放、リハビリ、耳","色":"オレンジ","area":"粟田部"},"geometry":{"type":"Point","coordinates":[136.243488,35.916988]}},{"type":"Feature","properties":{"﻿name":"（医）つがわ内科クリニック","address":"越前市岩本町2-104","description":"","url":"","tel":"0778-42-3811","shinryokamoku":"内、循、リウマチ","色":"緑","area":"岡本"},"geometry":{"type":"Point","coordinates":[136.243843,35.90805]}},{"type":"Feature","properties":{"﻿name":"林医院","address":"越前市野岡町21-3","description":"公益社団法人日本小児科医会、公益社団法人日本小児科学会の会員である小児科医","url":"","tel":"0778-42-0641","shinryokamoku":"児、内、皮","色":"オレンジ","area":"岡本"},"geometry":{"type":"Point","coordinates":[136.248779,35.92477]}},{"type":"Feature","properties":{"﻿name":"いんべ歯科医院","address":"越前市府中一丁目4-24","description":"","url":"https://www.imbe-shika.com/","tel":"0778-22-5050","shinryokamoku":"歯","色":"水色","area":"東"},"geometry":{"type":"Point","coordinates":[136.168616,35.902817]}},{"type":"Feature","properties":{"﻿name":"坂野歯科医院","address":"越前市府中一丁目12-28","description":"","url":"http://www.sakanosika.net/","tel":"0778-22-6323","shinryokamoku":"歯","色":"水色","area":"東"},"geometry":{"type":"Point","coordinates":[136.169935,35.903747]}},{"type":"Feature","properties":{"﻿name":"直江歯科医院","address":"越前市府中一丁目13-40","description":"","url":"","tel":"0778-24-0900","shinryokamoku":"歯","色":"水色","area":"東"},"geometry":{"type":"Point","coordinates":[136.169405,35.903579]}},{"type":"Feature","properties":{"﻿name":"天井歯科医院","address":"越前市天王町2-24","description":"","url":"","tel":"0778-24-0648","shinryokamoku":"歯","色":"水色","area":"東"},"geometry":{"type":"Point","coordinates":[136.167718,35.900967]}},{"type":"Feature","properties":{"﻿name":"服部歯科医院","address":"越前市幸町3-35","description":"","url":"","tel":"0778-22-1251","shinryokamoku":"歯","色":"水色","area":"東"},"geometry":{"type":"Point","coordinates":[136.167361,35.903691]}},{"type":"Feature","properties":{"﻿name":"水野歯科医院","address":"越前市幸町4-5","description":"","url":"","tel":"0778-24-1162","shinryokamoku":"歯","色":"水色","area":"東"},"geometry":{"type":"Point","coordinates":[136.166148,35.903495]}},{"type":"Feature","properties":{"﻿name":"西尾歯科医院","address":"越前市北府二丁目12-29","description":"","url":"","tel":"0778-21-1121","shinryokamoku":"歯","色":"水色","area":"東"},"geometry":{"type":"Point","coordinates":[136.166635,35.915152]}},{"type":"Feature","properties":{"﻿name":"（医）斉藤医院  ","address":"越前市北府三丁目5-1","description":"","url":"","tel":"0778-22-0234","shinryokamoku":"歯","色":"水色","area":"東"},"geometry":{"type":"Point","coordinates":[136.165231,35.911227]}},{"type":"Feature","properties":{"﻿name":"片山歯科医院","address":"越前市桂町5-22","description":"","url":"http://www.katayama-dentalclinic.com/","tel":"0778-22-0925","shinryokamoku":"歯","色":"水色","area":"東"},"geometry":{"type":"Point","coordinates":[136.165389,35.905156]}},{"type":"Feature","properties":{"﻿name":"（医）山本歯科医院","address":"越前市元町1-12","description":"","url":"","tel":"0778-24-0558","shinryokamoku":"歯","色":"水色","area":"西"},"geometry":{"type":"Point","coordinates":[136.165862,35.901191]}},{"type":"Feature","properties":{"﻿name":"平井歯科医院","address":"越前市京町二丁目4-5","description":"","url":"","tel":"0778-22-1184","shinryokamoku":"歯","色":"水色","area":"西"},"geometry":{"type":"Point","coordinates":[136.161933,35.902649]}},{"type":"Feature","properties":{"﻿name":"岩堀歯科クリニック","address":"越前市平和町9-3","description":"","url":"","tel":"0778-29-0648","shinryokamoku":"歯","色":"水色","area":"西"},"geometry":{"type":"Point","coordinates":[136.163717,35.898288]}},{"type":"Feature","properties":{"﻿name":"くどう歯科医院","address":"越前市高瀬一丁目7-15","description":"","url":"","tel":"0778-23-6480","shinryokamoku":"歯","色":"水色","area":"西"},"geometry":{"type":"Point","coordinates":[136.157723,35.897171]}},{"type":"Feature","properties":{"﻿name":"（医）水谷歯科医院","address":"越前市平出三丁目8-40","description":"","url":"","tel":"0778-24-3570","shinryokamoku":"歯","色":"水色","area":"西"},"geometry":{"type":"Point","coordinates":[136.159269,35.914334]}},{"type":"Feature","properties":{"﻿name":"若泉歯科クリニック","address":"越前市文京二丁目12-38","description":"","url":"https://www.wakaizumi-dental.com/","tel":"0778-24-3021","shinryokamoku":"歯","色":"水色","area":"南"},"geometry":{"type":"Point","coordinates":[136.163513,35.89363]}},{"type":"Feature","properties":{"﻿name":"こいずみデンタルクリニック","address":"越前市松森町111","description":"","url":"http://www.koizumi-dental.net/","tel":"0778-21-3222","shinryokamoku":"歯","色":"水色","area":"南"},"geometry":{"type":"Point","coordinates":[136.161879,35.881183]}},{"type":"Feature","properties":{"﻿name":"わきた歯科医院","address":"越前市千福町127","description":"","url":"","tel":"0778-21-0100","shinryokamoku":"歯","色":"水色","area":"南"},"geometry":{"type":"Point","coordinates":[136.1531956,35.8921399]}},{"type":"Feature","properties":{"﻿name":"（医）坂下歯科医院","address":"越前市村国二丁目11-31","description":"","url":"","tel":"0778-22-0608","shinryokamoku":"歯","色":"水色","area":"国高"},"geometry":{"type":"Point","coordinates":[136.180133,35.906474]}},{"type":"Feature","properties":{"﻿name":"あさざわ歯科医院","address":"越前市村国三丁目7-7","description":"","url":"http://asazawa-dental.cihp.jp/","tel":"0778-23-0821","shinryokamoku":"歯","色":"水色","area":"国高"},"geometry":{"type":"Point","coordinates":[136.181183,35.908011]}},{"type":"Feature","properties":{"﻿name":"宮本歯科クリニック","address":"越前市村国三丁目34-1","description":"","url":"","tel":"0778-25-7771","shinryokamoku":"歯","色":"水色","area":"国高"},"geometry":{"type":"Point","coordinates":[136.178907,35.912797]}},{"type":"Feature","properties":{"﻿name":"せいじ矯正歯科クリニック","address":"越前市横市町1-5-7","description":"","url":"http://seiji-kyousei.com/","tel":"0778-29-0118","shinryokamoku":"歯","色":"水色","area":"国高"},"geometry":{"type":"Point","coordinates":[136.192777,35.917557]}},{"type":"Feature","properties":{"﻿name":"増永歯科医院","address":"越前市庄町1-4","description":"","url":"","tel":"0778-21-5552","shinryokamoku":"歯","色":"水色","area":"国高"},"geometry":{"type":"Point","coordinates":[136.191168,35.91063]}},{"type":"Feature","properties":{"﻿name":"みずたに歯科クリニック","address":"越前市長土呂町7-20-2","description":"","url":"http://www.mizutani-dc.com/","tel":"0778-43-6480","shinryokamoku":"歯","色":"水色","area":"国高"},"geometry":{"type":"Point","coordinates":[136.188054,35.9171]}},{"type":"Feature","properties":{"﻿name":"山王歯科","address":"越前市上太田町23-3-10","description":"","url":"https://www.sannou-dental.com/","tel":"0778-24-1766","shinryokamoku":"歯","色":"水色","area":"大虫"},"geometry":{"type":"Point","coordinates":[136.147921,35.907145]}},{"type":"Feature","properties":{"﻿name":"けい歯科医院","address":"越前市上太田町49-7-2","description":"","url":"https://www.keishika.jp/","tel":"0778-23-4618","shinryokamoku":"歯","色":"水色","area":"大虫"},"geometry":{"type":"Point","coordinates":[136.148824,35.901287]}},{"type":"Feature","properties":{"﻿name":"ひの歯科クリニック","address":"越前市岩内町2-1-2","description":"","url":"http://hinosika.net/","tel":"0778-25-6480","shinryokamoku":"歯","色":"水色","area":"北日野"},"geometry":{"type":"Point","coordinates":[136.19274,35.890942]}},{"type":"Feature","properties":{"﻿name":"たけふ生協歯科診療所","address":"越前市芝原五丁目8－1－1　","description":"","url":"http://www.fukui-min-iren.com/takefusika/index.html","tel":"0778-22-5666","shinryokamoku":"歯","色":"水色","area":"吉野"},"geometry":{"type":"Point","coordinates":[136.159138,35.922585]}},{"type":"Feature","properties":{"﻿name":"藤井歯科医院","address":"越前市粟田部町27-40","description":"","url":"","tel":"0778-42-0357","shinryokamoku":"歯","色":"水色","area":"粟田部"},"geometry":{"type":"Point","coordinates":[136.237877,35.916089]}},{"type":"Feature","properties":{"﻿name":"山田歯科医院","address":"越前市粟田部町33-6-7","description":"","url":"","tel":"0778-43-0345","shinryokamoku":"歯","色":"水色","area":"粟田部"},"geometry":{"type":"Point","coordinates":[136.243185,35.917422]}},{"type":"Feature","properties":{"﻿name":"いけだ歯科医院","address":"越前市粟田部町50-41","description":"","url":"","tel":"0778-42-3435","shinryokamoku":"歯","色":"水色","area":"粟田部"},"geometry":{"type":"Point","coordinates":[136.239158,35.911976]}},{"type":"Feature","properties":{"﻿name":"はせがわ歯科","address":"越前市野岡町20-10-1","description":"","url":"","tel":"0778-43-1525","shinryokamoku":"歯","色":"水色","area":"南中山"},"geometry":{"type":"Point","coordinates":[136.248058,35.92476]}}]}}